,Country Name,Country Code,Indicator Name,Indicator Code,1990,1991,1992,1993,1994,1995,1996,1997,1998,1999,2000,2001,2002,2003,2004,2005,2006,2007,2008,2009,2010,2011,2012,2013,2014,2015,2016,2017,latitude,longitude
0,Afghanistan,AFG,Refugee population by country or territory of asylum,SM.POP.REFG,50.0,38.0,60025.0,32132.0,19131.0,19605.0,18775.0,5.0,,,,6.0,3.0,22.0,30.0,32.0,35.0,42.0,37.0,37.0,6434.0,3009.0,16187.0,16863.0,300423.0,257554.0,59771.0,75927.0,33.7680065,66.2385139
1,Angola,AGO,Refugee population by country or territory of asylum,SM.POP.REFG,11557.0,11022.0,11002.0,10878.0,10686.0,10884.0,9381.0,9364.0,10605.0,13071.0,12086.0,12250.0,12250.0,13382.0,13970.0,13984.0,13090.0,12069.0,12710.0,14734.0,15155.0,16223.0,23413.0,23783.0,15474.0,15555.0,15555.0,41109.0,-11.8775768,17.5691241
2,Albania,ALB,Refugee population by country or territory of asylum,SM.POP.REFG,,,3000.0,3000.0,3000.0,4720.0,4925.0,30.0,22332.0,3930.0,523.0,292.0,17.0,26.0,51.0,56.0,56.0,77.0,65.0,70.0,76.0,82.0,86.0,93.0,104.0,104.0,138.0,89.0,41.000028,19.9999619
3,United Arab Emirates,ARB,Refugee population by country or territory of asylum,SM.POP.REFG,4235545.0,3811595.0,4000509.0,4189545.0,4352945.0,4337009.0,4159630.0,4243164.0,4373393.0,4487654.0,4639943.0,4942633.0,5110748.0,4932948.0,5039854.0,5106930.0,6444738.0,7513460.0,7206343.0,6955072.0,7077529.0,6657656.0,6638911.0,7794808.0,8375066.0,8304742.0,8440191.0,9056647.0,24.0002488,53.9994829
4,Argentina,ARE,Refugee population by country or territory of asylum,SM.POP.REFG,,,,433.0,381.0,407.0,464.0,519.0,529.0,501.0,562.0,556.0,163.0,160.0,105.0,104.0,174.0,159.0,209.0,279.0,538.0,677.0,631.0,603.0,417.0,663.0,895.0,874.0,-34.9964963,-64.9672817
5,Armenia,ARG,Refugee population by country or territory of asylum,SM.POP.REFG,11735.0,11529.0,11515.0,11636.0,11901.0,10314.0,10430.0,10522.0,2270.0,2345.0,2396.0,2396.0,2439.0,2642.0,2916.0,3074.0,3158.0,3263.0,2845.0,3230.0,3276.0,3361.0,3488.0,3362.0,3498.0,3207.0,3293.0,3287.0,40.7696272,44.6736646
6,American Samoa,ARM,Refugee population by country or territory of asylum,SM.POP.REFG,,,300000.0,334000.0,304039.0,218950.0,218950.0,219000.0,310012.0,296216.0,280591.0,264337.0,247550.0,239289.0,235235.0,219550.0,113714.0,4566.0,3953.0,3607.0,3296.0,2918.0,2854.0,13732.0,17640.0,19319.0,17886.0,17963.0,-14.30063095,-170.695974791655
7,Austria,AUS,Refugee population by country or territory of asylum,SM.POP.REFG,97915.0,53117.0,52604.0,53505.0,57575.0,62145.0,67313.0,66074.0,69745.0,64918.0,60246.0,57895.0,59436.0,56258.0,63476.0,64964.0,68948.0,22164.0,20919.0,22548.0,21805.0,23434.0,30083.0,34503.0,35582.0,36917.0,42188.0,48415.0,47.2000338,13.199959
8,Azerbaijan,AUT,Refugee population by country or territory of asylum,SM.POP.REFG,34938.0,34508.0,62355.0,57687.0,40703.0,34385.0,89116.0,84394.0,80300.0,82081.0,15492.0,14390.0,14130.0,16109.0,17795.0,21230.0,25486.0,30773.0,37557.0,38906.0,42630.0,47073.0,51730.0,55598.0,60747.0,72216.0,93250.0,115197.0,40.3936294,47.7872508
9,Burundi,AZE,Refugee population by country or territory of asylum,SM.POP.REFG,,,246000.0,228840.0,231635.0,233682.0,233692.0,233715.0,221635.0,221643.0,287.0,367.0,458.0,326.0,8606.0,3004.0,2618.0,2352.0,2061.0,1642.0,1891.0,1730.0,1468.0,1380.0,1299.0,1278.0,1193.0,1115.0,-3.3634357,29.8870575
10,Belgium,BDI,Refugee population by country or territory of asylum,SM.POP.REFG,268403.0,270136.0,271745.0,271883.0,300302.0,173017.0,20733.0,22028.0,25093.0,22109.0,27136.0,27896.0,40533.0,40971.0,48808.0,20681.0,13176.0,24483.0,21093.0,24967.0,29365.0,35659.0,41813.0,45490.0,52936.0,53363.0,57469.0,62353.0,50.6402809,4.6667145
11,Benin,BEL,Refugee population by country or territory of asylum,SM.POP.REFG,25911.0,24071.0,24292.0,24908.0,19497.0,31691.0,36060.0,36060.0,15509.0,16760.0,18832.0,12265.0,12578.0,12595.0,13529.0,15282.0,16820.0,17575.0,17026.0,15545.0,17892.0,22402.0,22024.0,25629.0,29179.0,35314.0,42168.0,42128.0,9.5293472,2.2584408
12,Burkina Faso,BEN,Refugee population by country or territory of asylum,SM.POP.REFG,456.0,456.0,293.0,156241.0,70406.0,23843.0,5960.0,2918.0,2903.0,3657.0,4296.0,4799.0,5021.0,5034.0,4802.0,30294.0,10797.0,7621.0,6933.0,7205.0,7139.0,7217.0,4966.0,194.0,415.0,530.0,809.0,1051.0,12.0753083,-1.6880314
13,Bangladesh,BFA,Refugee population by country or territory of asylum,SM.POP.REFG,350.0,320.0,5670.0,6604.0,49990.0,29777.0,28381.0,1801.0,564.0,675.0,696.0,457.0,457.0,466.0,492.0,511.0,511.0,535.0,557.0,543.0,531.0,546.0,39306.0,29234.0,31894.0,34017.0,32552.0,24147.0,24.4768598,90.2932299
14,Bulgaria,BGD,Refugee population by country or territory of asylum,SM.POP.REFG,145.0,40260.0,245154.0,198954.0,116228.0,51118.0,30692.0,21603.0,22277.0,22210.0,21627.0,22173.0,22025.0,19792.0,20449.0,21098.0,26311.0,27573.0,28389.0,228586.0,229253.0,229669.0,230697.0,231145.0,232472.0,231958.0,276207.0,932209.0,42.6073975,25.4856617
15,Bahrain,BGR,Refugee population by country or territory of asylum,SM.POP.REFG,,,218.0,450.0,1060.0,1320.0,1430.0,390.0,240.0,547.0,1474.0,3004.0,3658.0,4068.0,4684.0,4413.0,4504.0,4836.0,5129.0,5393.0,5530.0,5688.0,2288.0,4320.0,11046.0,16557.0,17814.0,19141.0,26.1551249,50.5344606
16,"Bahamas, The",BHR,Refugee population by country or territory of asylum,SM.POP.REFG,1780.0,,,,,,,,,1.0,1.0,1.0,,,,,1.0,,48.0,139.0,165.0,199.0,289.0,294.0,311.0,247.0,271.0,255.0,24.7736546,-78.0000547
17,Bosnia and Herzegovina,BHS,Refugee population by country or territory of asylum,SM.POP.REFG,,,374.0,59.0,,8.0,48.0,60.0,80.0,100.0,100.0,,,,,,,,,,28.0,28.0,37.0,15.0,13.0,8.0,13.0,8.0,44.3053476,17.5961467
18,Belarus,BIH,Refugee population by country or territory of asylum,SM.POP.REFG,,,,,,,,40000.0,40000.0,65645.0,38152.0,32745.0,28022.0,22517.0,22215.0,10568.0,10318.0,7367.0,7257.0,7132.0,7016.0,6933.0,6903.0,6926.0,6890.0,6798.0,5271.0,5209.0,53.4250605,27.6971358
19,Belize,BLR,Refugee population by country or territory of asylum,SM.POP.REFG,,,,,1822.0,28988.0,30525.0,50.0,75.0,260.0,458.0,584.0,618.0,638.0,725.0,725.0,690.0,649.0,609.0,580.0,589.0,595.0,576.0,604.0,925.0,1809.0,1650.0,2145.0,16.8259793,-88.7600927
20,Bermuda,BLZ,Refugee population by country or territory of asylum,SM.POP.REFG,30657.0,29969.0,20351.0,8912.0,8857.0,8750.0,8534.0,8387.0,3483.0,2891.0,1250.0,1129.0,1049.0,861.0,732.0,624.0,488.0,358.0,277.0,230.0,134.0,78.0,28.0,21.0,10.0,35.0,,,32.3018217,-64.7603583
21,Bolivia,BMU,Refugee population by country or territory of asylum,SM.POP.REFG,,,,,,,,,,,,,,,,,,,,,,,,,,,,,-17.0568696,-64.9912286
22,Brazil,BOL,Refugee population by country or territory of asylum,SM.POP.REFG,200.0,341.0,491.0,669.0,734.0,681.0,698.0,333.0,349.0,350.0,351.0,347.0,350.0,527.0,524.0,535.0,567.0,632.0,664.0,679.0,695.0,716.0,733.0,748.0,763.0,775.0,786.0,761.0,-10.3333333,-53.2
23,Barbados,BRA,Refugee population by country or territory of asylum,SM.POP.REFG,5335.0,5389.0,5439.0,6198.0,2223.0,2050.0,2212.0,2260.0,2347.0,2378.0,2722.0,2884.0,3182.0,3193.0,3345.0,3458.0,3492.0,20783.0,3852.0,4232.0,4357.0,4477.0,4689.0,5196.0,7490.0,8707.0,9689.0,10230.0,13.1500331,-59.5250305
24,Central African Republic,BWA,Refugee population by country or territory of asylum,SM.POP.REFG,1179.0,1054.0,497.0,514.0,503.0,266.0,214.0,281.0,2137.0,1296.0,3551.0,3581.0,2805.0,2838.0,2839.0,3109.0,3160.0,2465.0,3019.0,3022.0,2986.0,3312.0,2785.0,2773.0,2645.0,2130.0,2093.0,2106.0,25.2183959,55.1752385762154
25,Canada,CAF,Refugee population by country or territory of asylum,SM.POP.REFG,4284.0,12223.0,19040.0,44129.0,47791.0,33856.0,36564.0,38499.0,43013.0,49314.0,55661.0,49239.0,50725.0,44753.0,25020.0,24569.0,12357.0,7535.0,7429.0,27047.0,21574.0,16730.0,14014.0,14322.0,7694.0,7330.0,12115.0,10023.0,61.0666922,-107.9917071
26,Central Europe and the Baltics,CAN,Refugee population by country or territory of asylum,SM.POP.REFG,154761.0,170916.0,183723.0,183241.0,186563.0,152125.0,138435.0,125184.0,119371.0,123316.0,126991.0,129224.0,129950.0,133094.0,141398.0,147171.0,151827.0,175741.0,173651.0,169434.0,165549.0,164883.0,163756.0,160349.0,149163.0,135888.0,97332.0,104748.0,33.7680065,66.2385139
27,Switzerland,CEB,Refugee population by country or territory of asylum,SM.POP.REFG,45123.0,75730.0,522368.0,339162.0,219630.0,239463.0,188898.0,84236.0,40388.0,42202.0,36205.0,37110.0,24102.0,23756.0,22538.0,25016.0,26416.0,29733.0,32346.0,32937.0,32590.0,32573.0,28941.0,30691.0,38035.0,44360.0,44378.0,48929.0,46.7985624,8.2319736
28,Channel Islands,CHE,Refugee population by country or territory of asylum,SM.POP.REFG,40943.0,45622.0,51930.0,56586.0,75295.0,82943.0,84413.0,83203.0,81903.0,82298.0,57653.0,58494.0,54113.0,50144.0,47678.0,48030.0,48523.0,45653.0,46132.0,46203.0,48813.0,50416.0,50747.0,52464.0,62620.0,73336.0,82681.0,92995.0,60.6167942,-145.7996671
29,China,CHL,Refugee population by country or territory of asylum,SM.POP.REFG,58.0,72.0,142.0,239.0,217.0,283.0,313.0,276.0,305.0,323.0,364.0,389.0,413.0,466.0,569.0,806.0,1134.0,1376.0,1613.0,1539.0,1621.0,1674.0,1695.0,1743.0,1773.0,1849.0,1737.0,1841.0,35.000074,104.999927
30,Cote d'Ivoire,CHN,Refugee population by country or territory of asylum,SM.POP.REFG,287276.0,289061.0,288123.0,287423.0,287066.0,288309.0,290100.0,291507.0,292345.0,293299.0,294110.0,295325.0,297277.0,299354.0,299375.0,301041.0,301027.0,301078.0,300967.0,300989.0,300986.0,301018.0,301037.0,301047.0,301052.0,301052.0,317255.0,321699.0,7.9897371,-5.5679458
31,Cameroon,CIV,Refugee population by country or territory of asylum,SM.POP.REFG,272281.0,230290.0,174076.0,251588.0,360112.0,297908.0,327696.0,208502.0,151182.0,138429.0,120691.0,126239.0,44749.0,75971.0,72088.0,41627.0,27288.0,24647.0,24811.0,24604.0,26218.0,24221.0,3980.0,2980.0,1925.0,1980.0,1399.0,1544.0,4.6125522,13.1535811
32,"Congo, Dem. Rep.",CMR,Refugee population by country or territory of asylum,SM.POP.REFG,49876.0,45237.0,42233.0,44013.0,44036.0,45781.0,46407.0,47057.0,47826.0,49227.0,43680.0,41186.0,58288.0,58583.0,58861.0,52042.0,35083.0,60137.0,81037.0,99957.0,104275.0,100373.0,98969.0,114753.0,264126.0,342973.0,375415.0,337367.0,33.7680065,66.2385139
33,"Congo, Rep.",COD,Refugee population by country or territory of asylum,SM.POP.REFG,416435.0,482959.0,391127.0,572070.0,1724365.0,1433760.0,675973.0,297538.0,240214.0,285270.0,332509.0,362012.0,332978.0,234033.0,199323.0,204341.0,208371.0,177390.0,155162.0,185809.0,166336.0,152749.0,65109.0,113362.0,119754.0,383095.0,451956.0,537074.0,33.7680065,66.2385139
34,Colombia,COG,Refugee population by country or territory of asylum,SM.POP.REFG,2990.0,3395.0,3385.0,13646.0,15522.0,19404.0,20451.0,20697.0,27174.0,39870.0,123190.0,119147.0,109201.0,91362.0,68536.0,66075.0,55788.0,38472.0,24779.0,111411.0,133112.0,141232.0,98455.0,51037.0,54842.0,44955.0,46457.0,48494.0,2.8894434,-73.783892
35,Comoros,COL,Refugee population by country or territory of asylum,SM.POP.REFG,460.0,450.0,478.0,298.0,316.0,218.0,220.0,223.0,226.0,230.0,239.0,210.0,205.0,186.0,141.0,155.0,143.0,168.0,170.0,196.0,212.0,219.0,219.0,224.0,213.0,226.0,258.0,240.0,-12.2045176,44.2832964
36,Cabo Verde,COM,Refugee population by country or territory of asylum,SM.POP.REFG,,,,,,,,,,9.0,11.0,13.0,,,,1.0,1.0,,,,,,,,,,,,16.0000552,-24.0083947
37,Costa Rica,CPV,Refugee population by country or territory of asylum,SM.POP.REFG,,3.0,2.0,,,,,,,,,,,,,,,,,,,,,,,,,,10.2735633,-84.0739102
38,Caribbean small states,CRI,Refugee population by country or territory of asylum,SM.POP.REFG,276210.0,117492.0,114392.0,24834.0,24630.0,24226.0,23176.0,23114.0,22986.0,22903.0,5519.0,8104.0,12433.0,13508.0,10413.0,11253.0,11515.0,17190.0,18136.0,19116.0,19505.0,20057.0,20449.0,20569.0,20744.0,3616.0,4180.0,4464.0,33.7680065,66.2385139
39,Cuba,CSS,Refugee population by country or territory of asylum,SM.POP.REFG,30657.0,29973.0,20867.0,9084.0,8937.0,8781.0,8607.0,8495.0,3600.0,3028.0,1388.0,1129.0,1049.0,861.0,732.0,624.0,488.0,381.0,311.0,294.0,220.0,160.0,112.0,94.0,144.0,197.0,156.0,319.0,23.0131338,-80.8328748
40,Curacao,CUB,Refugee population by country or territory of asylum,SM.POP.REFG,3988.0,,5092.0,3606.0,2002.0,1829.0,1694.0,1280.0,1067.0,967.0,954.0,1036.0,1005.0,836.0,795.0,706.0,667.0,615.0,525.0,454.0,411.0,384.0,371.0,384.0,280.0,303.0,316.0,338.0,12.1845,-68.9640918594077
41,Czech Republic,CYP,Refugee population by country or territory of asylum,SM.POP.REFG,33.0,60.0,80.0,82.0,66.0,55.0,49.0,43.0,84.0,117.0,76.0,83.0,173.0,349.0,531.0,701.0,924.0,1194.0,1465.0,2888.0,3394.0,3503.0,3631.0,3883.0,5126.0,7067.0,8484.0,9745.0,49.8167003,15.4749544
42,Germany,CZE,Refugee population by country or territory of asylum,SM.POP.REFG,,691.0,9399.0,188.0,1186.0,2655.0,2266.0,1731.0,1805.0,1232.0,1186.0,1216.0,1297.0,1516.0,1144.0,1802.0,1887.0,2037.0,2110.0,2323.0,2449.0,2449.0,2805.0,2979.0,3137.0,3644.0,3644.0,3580.0,51.0834196,10.4234469
43,Djibouti,DEU,Refugee population by country or territory of asylum,SM.POP.REFG,816000.0,821500.0,1236000.0,1418000.0,1354600.0,1267900.0,1266000.0,1049000.0,949200.0,975500.0,906000.0,903000.0,980000.0,960395.0,876622.0,700016.0,605406.0,578879.0,582735.0,593799.0,594269.0,571684.0,589737.0,187567.0,216973.0,316115.0,669482.0,970302.0,11.85677545,42.7577845199437
44,Dominica,DJI,Refugee population by country or territory of asylum,SM.POP.REFG,77606.0,96144.0,28000.0,34065.0,33406.0,27310.0,25076.0,23590.0,23582.0,23271.0,23243.0,23176.0,21702.0,27034.0,18035.0,10456.0,9259.0,6651.0,9228.0,12111.0,15104.0,20340.0,19139.0,20015.0,20530.0,19365.0,17683.0,17548.0,15.4113138,-61.3653618
45,Denmark,DMA,Refugee population by country or territory of asylum,SM.POP.REFG,,,,,,,,,,,,,,,,,,,,,,,,,,,,,55.670249,10.3333283
46,Dominican Republic,DNK,Refugee population by country or territory of asylum,SM.POP.REFG,32906.0,36110.0,39118.0,44564.0,49558.0,64844.0,66373.0,68122.0,69015.0,69006.0,71035.0,73284.0,73597.0,69858.0,65310.0,44374.0,36659.0,26788.0,23401.0,20355.0,17922.0,13399.0,11814.0,13170.0,17785.0,27326.0,33507.0,35593.0,19.0974031,-70.3028026
47,Algeria,DOM,Refugee population by country or territory of asylum,SM.POP.REFG,1966.0,1571.0,510.0,1331.0,1252.0,985.0,640.0,638.0,614.0,625.0,510.0,,,,,,,,,,599.0,595.0,758.0,721.0,608.0,615.0,592.0,579.0,28.0000272,2.9999825
48,East Asia & Pacific (excluding high income),DZA,Refugee population by country or territory of asylum,SM.POP.REFG,169110.0,169124.0,219314.0,219067.0,219073.0,192489.0,190267.0,170746.0,165226.0,165249.0,169656.0,169422.0,169233.0,169033.0,169048.0,94101.0,94180.0,94137.0,94093.0,94137.0,94144.0,94148.0,94133.0,94150.0,94128.0,94182.0,94232.0,94243.0,33.7680065,66.2385139
49,Early-demographic dividend,EAP,Refugee population by country or territory of asylum,SM.POP.REFG,453346.0,429546.0,396348.0,424447.0,407428.0,446979.0,450724.0,490303.0,505076.0,628312.0,594198.0,551125.0,510300.0,449102.0,456067.0,464458.0,484364.0,472348.0,463586.0,485530.0,492004.0,488523.0,487136.0,547912.0,545147.0,519824.0,534335.0,551365.0,33.7680065,66.2385139
50,East Asia & Pacific,EAR,Refugee population by country or territory of asylum,SM.POP.REFG,12040413.0,12017843.0,10696624.0,8713787.0,7546284.0,7543793.0,7480344.0,7426458.0,7364627.0,7528806.0,8438286.0,8918865.0,7504728.0,7147165.0,7458802.0,7199295.0,8387169.0,10776141.0,10126071.0,10206150.0,10551850.0,9932595.0,9914714.0,10557981.0,11937141.0,13050011.0,13310290.0,14765629.0,49.4212299,8.4297698
51,Europe & Central Asia (excluding high income),EAS,Refugee population by country or territory of asylum,SM.POP.REFG,571488.0,510678.0,475815.0,490258.0,476334.0,519923.0,528467.0,566111.0,584455.0,703247.0,664108.0,618883.0,579665.0,515361.0,528773.0,538676.0,562099.0,499271.0,489525.0,514077.0,519221.0,517098.0,521925.0,587080.0,585985.0,562148.0,582376.0,605662.0,33.7680065,66.2385139
52,Europe & Central Asia,ECA,Refugee population by country or territory of asylum,SM.POP.REFG,28000.0,31113.0,613215.0,672121.0,638102.0,570574.0,805353.0,794190.0,776434.0,751106.0,471312.0,437739.0,400981.0,371221.0,363246.0,317289.0,256460.0,153768.0,174175.0,163037.0,139920.0,136132.0,375759.0,716111.0,1922018.0,2950988.0,3193035.0,3698372.0,47.6005146,7.657963
53,Ecuador,ECS,Refugee population by country or territory of asylum,SM.POP.REFG,1439045.0,1488231.0,2992856.0,3175065.0,3080064.0,2959592.0,3215507.0,2896284.0,2660934.0,2673582.0,2281109.0,2285748.0,2327511.0,2245203.0,2127964.0,1892093.0,1739173.0,1589866.0,1636037.0,1649545.0,1610871.0,1560846.0,1797327.0,1775920.0,3110007.0,4382921.0,5195769.0,6107865.0,-1.3397668,-79.3666965
54,"Egypt, Arab Rep.",ECU,Refugee population by country or territory of asylum,SM.POP.REFG,510.0,280.0,204.0,238.0,244.0,202.0,211.0,227.0,248.0,314.0,1602.0,1715.0,3240.0,6381.0,8450.0,10063.0,11789.0,264907.0,101398.0,116557.0,121249.0,123436.0,123824.0,123209.0,122161.0,121535.0,102848.0,92320.0,33.7680065,66.2385139
55,Euro area,EGY,Refugee population by country or territory of asylum,SM.POP.REFG,1991.0,2245.0,5509.0,6712.0,7223.0,5407.0,6035.0,6493.0,6276.0,6553.0,6840.0,7230.0,80494.0,88749.0,90343.0,88946.0,88022.0,97556.0,97861.0,94406.0,95056.0,95087.0,109933.0,230086.0,236090.0,212500.0,213530.0,232617.0,38.6811851,-9.1546646
56,Eritrea,EMU,Refugee population by country or territory of asylum,SM.POP.REFG,1119112.0,1103271.0,1615264.0,1830111.0,1798725.0,1690426.0,1745548.0,1531494.0,1352505.0,1383776.0,1260117.0,1256933.0,1328112.0,1304927.0,1221580.0,1045387.0,955391.0,935144.0,967056.0,1012282.0,1024784.0,1022620.0,1058069.0,694994.0,784489.0,972385.0,1464996.0,1844670.0,15.9500319,37.9999668
57,Spain,ERI,Refugee population by country or territory of asylum,SM.POP.REFG,,,,3.0,706.0,1083.0,2106.0,2606.0,2501.0,2972.0,1984.0,2272.0,3619.0,3889.0,4240.0,4418.0,4621.0,5042.0,4862.0,4751.0,4809.0,4719.0,3600.0,3166.0,2898.0,2549.0,2342.0,2392.0,39.3262345,-4.8380649
58,Estonia,ESP,Refugee population by country or territory of asylum,SM.POP.REFG,8303.0,4003.0,4036.0,4997.0,5361.0,5852.0,5688.0,5532.0,5939.0,6714.0,6987.0,6806.0,6780.0,5900.0,5686.0,5374.0,5275.0,5147.0,4661.0,3970.0,3820.0,4228.0,4510.0,4637.0,5798.0,6457.0,12989.0,17526.0,58.7523778,25.3319078
59,Ethiopia,EST,Refugee population by country or territory of asylum,SM.POP.REFG,,,,,,,,,,,4.0,11.0,10.0,12.0,11.0,7.0,5.0,18.0,22.0,24.0,39.0,50.0,63.0,70.0,90.0,168.0,322.0,380.0,10.2116702,38.6521203
60,European Union,ETH,Refugee population by country or territory of asylum,SM.POP.REFG,773764.0,529620.0,431824.0,272631.0,348074.0,393479.0,390528.0,323067.0,262160.0,257689.0,197959.0,152554.0,132940.0,130274.0,115980.0,100817.0,96980.0,85183.0,83583.0,121886.0,154295.0,288844.0,376393.0,433936.0,659524.0,736086.0,791631.0,889397.0,34.8696391,24.068801347645
61,Fragile and conflict affected situations,EUU,Refugee population by country or territory of asylum,SM.POP.REFG,1350436.0,1382952.0,2298449.0,2409948.0,2324549.0,2260201.0,2279166.0,1972623.0,1758494.0,1798544.0,1707486.0,1744018.0,1827472.0,1784315.0,1680475.0,1491705.0,1398876.0,1365184.0,1390548.0,1414743.0,1394390.0,1347063.0,1339598.0,977025.0,1097414.0,1334077.0,1888824.0,2287804.0,33.7680065,66.2385139
62,Finland,FCS,Refugee population by country or territory of asylum,SM.POP.REFG,4255468.0,3748950.0,3887681.0,4197757.0,5432210.0,4960485.0,3862070.0,3385042.0,3348725.0,3472923.0,3639852.0,3657523.0,3647845.0,3417890.0,3503435.0,3560317.0,4340836.0,5239660.0,4892609.0,5084519.0,5231159.0,5052859.0,4971018.0,5698136.0,6550919.0,6601987.0,6562592.0,7263378.0,63.2467777,25.9209164
63,Fiji,FIN,Refugee population by country or territory of asylum,SM.POP.REFG,2348.0,4561.0,5950.0,8511.0,9511.0,10191.0,11382.0,12017.0,12290.0,12869.0,13276.0,12728.0,12490.0,10843.0,11325.0,11809.0,11827.0,6204.0,6617.0,7447.0,8724.0,9175.0,9919.0,11252.0,11798.0,12703.0,18401.0,20713.0,-18.1239696,179.0122737
64,France,FJI,Refugee population by country or territory of asylum,SM.POP.REFG,,,,,,9.0,9.0,,,,,,,,,,,,,2.0,1.0,7.0,6.0,5.0,13.0,12.0,12.0,7.0,46.603354,1.8883335
65,Faroe Islands,FRA,Refugee population by country or territory of asylum,SM.POP.REFG,193000.0,174756.0,156512.0,166269.0,195288.0,155245.0,151329.0,146558.0,140215.0,129722.0,132508.0,131601.0,132182.0,130838.0,139852.0,137316.0,145996.0,151789.0,171206.0,196364.0,200687.0,210207.0,217865.0,232487.0,252264.0,273126.0,304546.0,337143.0,62.19850045,-6.81741243341217
66,"Micronesia, Fed. Sts.",FRO,Refugee population by country or territory of asylum,SM.POP.REFG,,,,,,,,,,,,,,,,,,,,,,,,,,,,,33.7680065,66.2385139
67,Gabon,FSM,Refugee population by country or territory of asylum,SM.POP.REFG,,,,,,,,,,,,,,,,,2.0,2.0,1.0,1.0,,,,,,3.0,4.0,,-0.8999695,11.6899699
68,United Kingdom,GAB,Refugee population by country or territory of asylum,SM.POP.REFG,417.0,220.0,272.0,,597.0,791.0,798.0,862.0,1124.0,15070.0,17982.0,15581.0,13473.0,14005.0,13787.0,8545.0,8429.0,8826.0,9001.0,8845.0,9015.0,1773.0,1663.0,1594.0,1013.0,943.0,931.0,825.0,54.7023545,-3.2765753
69,Georgia,GBR,Refugee population by country or territory of asylum,SM.POP.REFG,43632.0,43371.0,64726.0,80230.0,85160.0,90909.0,98577.0,107933.0,121716.0,148922.0,186248.0,233389.0,260687.0,276522.0,298844.0,303181.0,301556.0,299718.0,292097.0,269363.0,238150.0,193510.0,149799.0,126055.0,117234.0,123067.0,118995.0,121766.0,32.3293809,-83.1137366
70,Ghana,GEO,Refugee population by country or territory of asylum,SM.POP.REFG,,,,,,100.0,95.0,162.0,20.0,5180.0,7620.0,7901.0,4192.0,3864.0,2559.0,2497.0,1373.0,1047.0,996.0,870.0,639.0,462.0,469.0,847.0,857.0,1979.0,2125.0,2069.0,8.0300284,-1.0800271
71,Gibraltar,GHA,Refugee population by country or territory of asylum,SM.POP.REFG,8123.0,8128.0,12114.0,150100.0,113666.0,83200.0,35617.0,22858.0,14557.0,13261.0,12720.0,11792.0,33515.0,43947.0,42053.0,53537.0,44938.0,34958.0,18206.0,13658.0,13828.0,13588.0,16016.0,18681.0,18450.0,17406.0,11865.0,12148.0,36.140807,-5.3541295
72,"Gambia, The",GIN,Refugee population by country or territory of asylum,SM.POP.REFG,325000.0,547960.0,478491.0,577158.0,553244.0,672298.0,663854.0,435300.0,482467.0,501544.0,427206.0,178444.0,182163.0,184341.0,139252.0,63525.0,31468.0,25226.0,21488.0,15325.0,14113.0,16609.0,10371.0,8560.0,8766.0,8839.0,5068.0,5151.0,13.470062,-15.4900464
73,Guinea-Bissau,GMB,Refugee population by country or territory of asylum,SM.POP.REFG,78.0,241.0,3632.0,2190.0,2206.0,6599.0,6924.0,7279.0,10320.0,17219.0,12016.0,8133.0,12120.0,7465.0,7343.0,7330.0,13761.0,14895.0,14836.0,10118.0,8378.0,9528.0,9853.0,9563.0,11608.0,7854.0,7940.0,8034.0,12.100035,-14.9000214
74,Equatorial Guinea,GNB,Refugee population by country or territory of asylum,SM.POP.REFG,3004.0,4631.0,12163.0,20735.0,23909.0,15350.0,15401.0,15982.0,6604.0,7120.0,7587.0,7332.0,7639.0,7551.0,7536.0,7616.0,7804.0,7860.0,7884.0,7898.0,7679.0,7800.0,7784.0,8535.0,8684.0,8684.0,9263.0,11197.0,1.613172,10.5170357
75,Grenada,GRC,Refugee population by country or territory of asylum,SM.POP.REFG,8488.0,8989.0,8456.0,7873.0,7784.0,4428.0,5780.0,5520.0,6145.0,6283.0,6653.0,6948.0,2788.0,2771.0,2489.0,2390.0,2289.0,2228.0,2164.0,1695.0,1444.0,1573.0,2100.0,3485.0,10304.0,24838.0,46427.0,38948.0,12.1360374,-61.6904045
76,Guam,GTM,Refugee population by country or territory of asylum,SM.POP.REFG,223377.0,223236.0,222929.0,4689.0,4672.0,1496.0,1564.0,1508.0,815.0,732.0,720.0,729.0,733.0,715.0,656.0,391.0,382.0,379.0,130.0,131.0,138.0,147.0,159.0,160.0,164.0,226.0,300.0,360.0,13.444138,144.733626445767
77,"Hong Kong SAR, China",HIC,Refugee population by country or territory of asylum,SM.POP.REFG,2163845.0,2314495.0,3309450.0,3443064.0,3390480.0,3266283.0,3259666.0,2889018.0,2631790.0,2656849.0,2532116.0,2816680.0,2867046.0,2778160.0,2649227.0,2426193.0,2806329.0,2224941.0,2255105.0,2006808.0,1983723.0,1955630.0,1964148.0,1606492.0,1716172.0,1948393.0,2487599.0,2899752.0,39.8871676,8.6026857
78,Honduras,HKG,Refugee population by country or territory of asylum,SM.POP.REFG,8161.0,4414.0,2605.0,1848.0,1700.0,1481.0,1348.0,1229.0,1039.0,974.0,983.0,1390.0,1496.0,1902.0,1868.0,1934.0,1940.0,97.0,103.0,86.0,154.0,152.0,117.0,126.0,170.0,133.0,110.0,80.0,15.2572432,-86.0755145
79,Heavily indebted poor countries (HIPC),HND,Refugee population by country or territory of asylum,SM.POP.REFG,237100.0,101961.0,100348.0,65.0,104.0,63.0,63.0,9.0,9.0,9.0,12.0,20.0,29.0,23.0,23.0,22.0,22.0,22.0,24.0,19.0,14.0,17.0,16.0,16.0,26.0,30.0,16.0,17.0,33.7680065,66.2385139
80,Croatia,HPC,Refugee population by country or territory of asylum,SM.POP.REFG,5630764.0,4742660.0,4697253.0,5476302.0,6144296.0,5405334.0,3883435.0,3018062.0,2865880.0,3032305.0,3119864.0,2734109.0,2734412.0,2501058.0,2402802.0,2226857.0,2062768.0,1950301.0,1714977.0,1635849.0,1693627.0,1932462.0,1982437.0,2153925.0,3106984.0,3762133.0,4417832.0,5544156.0,45.5643442,17.0118954
81,Haiti,HRV,Refugee population by country or territory of asylum,SM.POP.REFG,,,403000.0,287000.0,183600.0,198647.0,165395.0,68863.0,29027.0,28374.0,22437.0,21875.0,8392.0,4387.0,3663.0,2927.0,2443.0,1642.0,1597.0,1238.0,936.0,824.0,724.0,684.0,726.0,522.0,304.0,448.0,19.1399952,-72.3570972
82,IBRD only,HUN,Refugee population by country or territory of asylum,SM.POP.REFG,45123.0,73838.0,32412.0,3023.0,2906.0,11394.0,7537.0,5890.0,3504.0,4990.0,5064.0,4710.0,6088.0,7023.0,7708.0,8046.0,8075.0,8131.0,7750.0,6044.0,5414.0,5106.0,4054.0,2440.0,2867.0,4393.0,4748.0,5641.0,33.7680065,66.2385139
83,IDA & IBRD total,IBD,Refugee population by country or territory of asylum,SM.POP.REFG,7254481.0,7484020.0,8382460.0,6342987.0,5801802.0,5650909.0,5806615.0,5725632.0,5638249.0,5746235.0,5482473.0,5467274.0,4938380.0,4486427.0,4583429.0,4423189.0,4986617.0,5454064.0,5392802.0,5501055.0,5503809.0,5272257.0,5617042.0,7408083.0,9148818.0,10070005.0,10259605.0,10796433.0,33.7680065,66.2385139
84,IDA total,IBT,Refugee population by country or territory of asylum,SM.POP.REFG,16740448.0,16144870.0,16100691.0,14488272.0,13987405.0,13159787.0,11769020.0,10816913.0,10604911.0,10854767.0,11516884.0,11369731.0,9879214.0,9081793.0,9257053.0,8764188.0,9795372.0,11967682.0,11105789.0,11309226.0,11555040.0,11390635.0,11548258.0,13168075.0,15806876.0,17362584.0,17916600.0,20282972.0,50.8963738,3.47488702466527
85,IDA blend,IDA,Refugee population by country or territory of asylum,SM.POP.REFG,9485967.0,8660850.0,7718231.0,8145285.0,8185603.0,7508878.0,5962405.0,5091281.0,4966662.0,5108532.0,6034411.0,5902457.0,4940834.0,4595366.0,4673624.0,4340999.0,4808755.0,6513618.0,5712987.0,5808171.0,6051231.0,6118378.0,5931216.0,5759992.0,6658058.0,7292579.0,7656995.0,9486539.0,33.7680065,66.2385139
86,Indonesia,IDB,Refugee population by country or territory of asylum,SM.POP.REFG,3524710.0,3475987.0,2326213.0,1959501.0,1392103.0,1523203.0,1515358.0,1523822.0,1533353.0,1531508.0,2430120.0,2658936.0,1695431.0,1585925.0,1725637.0,1530987.0,1431918.0,2423016.0,2231935.0,2334540.0,2564265.0,2533902.0,2418073.0,2335101.0,2393142.0,2521421.0,2244330.0,2230748.0,-4.7993356,114.5632032
87,IDA only,IDN,Refugee population by country or territory of asylum,SM.POP.REFG,3278.0,3156.0,3530.0,2402.0,97.0,19.0,61.0,34.0,47.0,162506.0,122618.0,73551.0,28596.0,233.0,169.0,89.0,301.0,315.0,369.0,798.0,811.0,1006.0,1819.0,3206.0,4270.0,5957.0,7827.0,9777.0,51.2459058,3.6024069
88,Isle of Man,IDX,Refugee population by country or territory of asylum,SM.POP.REFG,5961257.0,5184863.0,5392018.0,6185784.0,6793500.0,5985675.0,4447047.0,3567459.0,3433309.0,3577024.0,3604291.0,3243521.0,3245403.0,3009441.0,2947987.0,2810012.0,3376837.0,4090602.0,3481052.0,3473631.0,3486966.0,3584476.0,3513143.0,3424891.0,4264916.0,4771158.0,5412665.0,7255791.0,54.2358167,-4.51459874569825
89,India,IND,Refugee population by country or territory of asylum,SM.POP.REFG,212743.0,210569.0,258372.0,262798.0,258341.0,227480.0,233370.0,223073.0,185516.0,180031.0,170941.0,169549.0,168855.0,164757.0,162687.0,139283.0,158366.0,161537.0,184543.0,185323.0,184821.0,185118.0,185656.0,188395.0,199937.0,201381.0,197851.0,197122.0,22.3511148,78.6677428
90,"Iran, Islamic Rep.",IRL,Refugee population by country or territory of asylum,SM.POP.REFG,360.0,300.0,500.0,119.0,400.0,400.0,69.0,430.0,600.0,2835.0,2543.0,3598.0,5380.0,5971.0,6542.0,7113.0,7917.0,9333.0,9730.0,9571.0,9107.0,8248.0,6327.0,6001.0,5853.0,6125.0,5731.0,6324.0,33.7680065,66.2385139
91,Iraq,IRN,Refugee population by country or territory of asylum,SM.POP.REFG,4174401.0,4404995.0,4150723.0,2495038.0,2236350.0,2071988.0,2030359.0,1982553.0,1931332.0,1835688.0,1868000.0,1868000.0,1306599.0,984896.0,1045976.0,974302.0,968370.0,963546.0,980109.0,1070488.0,1073366.0,886468.0,868242.0,857354.0,982027.0,979437.0,979435.0,979435.0,33.0955793,44.1749775
92,Iceland,IRQ,Refugee population by country or territory of asylum,SM.POP.REFG,900.0,87990.0,115000.0,109066.0,119581.0,116722.0,112957.0,104032.0,104022.0,128913.0,127787.0,128142.0,134190.0,46721.0,46053.0,50177.0,44406.0,42354.0,39503.0,35218.0,34655.0,35189.0,98822.0,246298.0,271143.0,277701.0,261888.0,277663.0,64.9841821,-18.1059013
93,Israel,ISL,Refugee population by country or territory of asylum,SM.POP.REFG,85.0,141.0,154.0,160.0,160.0,197.0,232.0,260.0,294.0,254.0,244.0,213.0,207.0,239.0,239.0,293.0,267.0,49.0,49.0,62.0,83.0,58.0,60.0,79.0,99.0,179.0,179.0,321.0,30.8760272,35.0015196
94,Jamaica,ITA,Refugee population by country or territory of asylum,SM.POP.REFG,10840.0,9813.0,9258.0,50276.0,73060.0,74302.0,64711.0,66620.0,5473.0,6024.0,6849.0,8571.0,10060.0,12841.0,15674.0,20675.0,26875.0,38068.0,47061.0,54965.0,56397.0,58060.0,64779.0,76264.0,93715.0,118047.0,147370.0,167260.0,18.1850507,-77.3947693
95,Jordan,JAM,Refugee population by country or territory of asylum,SM.POP.REFG,,4.0,90.0,63.0,41.0,23.0,25.0,33.0,37.0,37.0,38.0,,,,,,,,,26.0,21.0,20.0,20.0,21.0,22.0,12.0,15.0,8.0,31.1667049,36.941628
96,Japan,JOR,Refugee population by country or territory of asylum,SM.POP.REFG,929737.0,1001357.0,1073007.0,1145025.0,1216957.0,1288895.0,1359580.0,1438104.0,1488226.0,1542417.0,1610638.0,1663294.0,1699470.0,1741366.0,1777769.0,1828842.0,2358591.0,2403771.0,2452016.0,2434489.0,2450381.0,2430589.0,2337348.0,2712888.0,2771502.0,2808351.0,2860688.0,2896162.0,36.5748441,139.2394179
97,Kazakhstan,JPN,Refugee population by country or territory of asylum,SM.POP.REFG,6819.0,6397.0,6669.0,6495.0,5942.0,5435.0,5278.0,4851.0,4492.0,4235.0,3752.0,3200.0,2657.0,2266.0,1967.0,1941.0,1844.0,1794.0,2019.0,2332.0,2586.0,2649.0,2581.0,2584.0,2560.0,2474.0,2514.0,2189.0,47.2286086,65.2093197
98,Kenya,KAZ,Refugee population by country or territory of asylum,SM.POP.REFG,,,,5000.0,5030.0,15561.0,15577.0,15577.0,8338.0,14795.0,20574.0,19531.0,20610.0,15831.0,15844.0,7265.0,4412.0,4285.0,4352.0,4340.0,4406.0,616.0,564.0,584.0,633.0,708.0,653.0,602.0,1.4419683,38.4313975
99,Kyrgyz Republic,KEN,Refugee population by country or territory of asylum,SM.POP.REFG,14249.0,120163.0,402194.0,301595.0,252423.0,234665.0,223640.0,232097.0,238187.0,223696.0,206106.0,239221.0,233671.0,237512.0,239835.0,251271.0,272531.0,265729.0,320605.0,358928.0,402905.0,566487.0,564933.0,534938.0,551352.0,553912.0,451099.0,431880.0,41.5089324,74.724091
100,Cambodia,KGZ,Refugee population by country or territory of asylum,SM.POP.REFG,,,,21242.0,21239.0,13407.0,16707.0,15276.0,14560.0,10849.0,10609.0,9296.0,7708.0,5591.0,3753.0,2598.0,366.0,723.0,375.0,423.0,2458.0,6095.0,4941.0,466.0,482.0,354.0,339.0,334.0,13.5066394,104.869423
101,Kiribati,KHM,Refugee population by country or territory of asylum,SM.POP.REFG,,,,5.0,10.0,15.0,16.0,14.0,21.0,21.0,34.0,50.0,200.0,76.0,382.0,127.0,99.0,179.0,164.0,135.0,129.0,64.0,77.0,68.0,63.0,76.0,66.0,61.0,0.4483283,-171.6645388
102,Kuwait,KOR,Refugee population by country or territory of asylum,SM.POP.REFG,230.0,162.0,149.0,,,5.0,6.0,3.0,1.0,7.0,6.0,7.0,17.0,25.0,44.0,69.0,96.0,118.0,172.0,268.0,358.0,401.0,487.0,548.0,1173.0,1463.0,1807.0,2203.0,29.2733964,47.4979476
103,Latin America & Caribbean (excluding high income),KWT,Refugee population by country or territory of asylum,SM.POP.REFG,,45590.0,44879.0,30000.0,30020.0,3306.0,3831.0,3787.0,4182.0,4334.0,2776.0,1255.0,1521.0,1518.0,1519.0,1523.0,50.0,38159.0,38238.0,221.0,184.0,335.0,674.0,635.0,614.0,741.0,939.0,608.0,33.7680065,66.2385139
104,Lao PDR,LAC,Refugee population by country or territory of asylum,SM.POP.REFG,1175043.0,878364.0,868395.0,112247.0,95843.0,82254.0,76625.0,71607.0,61560.0,57351.0,33599.0,32786.0,36354.0,33655.0,31000.0,32018.0,34312.0,508859.0,328725.0,345539.0,351640.0,355249.0,357868.0,358987.0,329706.0,314812.0,299504.0,243395.0,21.0810329,102.5034055
105,Lebanon,LAO,Refugee population by country or territory of asylum,SM.POP.REFG,,,,,,,,,2.0,,,,,,,,,,,,,,,,,,,,33.8750629,35.843409
106,Liberia,LBN,Refugee population by country or territory of asylum,SM.POP.REFG,304599.0,316095.0,325707.0,329705.0,338700.0,348031.0,355076.0,365160.0,371294.0,377612.0,382744.0,387733.0,392053.0,397054.0,400905.0,405248.0,428602.0,464299.0,472607.0,476053.0,463436.0,445144.0,575483.0,1303874.0,1606709.0,1529223.0,1476633.0,1468137.0,5.7499721,-9.3658524
107,Libya,LBR,Refugee population by country or territory of asylum,SM.POP.REFG,,,100048.0,150153.0,120163.0,120080.0,120061.0,126886.0,96317.0,96317.0,69315.0,54760.0,64956.0,33997.0,15172.0,10168.0,16185.0,10466.0,10224.0,6952.0,24743.0,128293.0,65909.0,53253.0,38595.0,36505.0,18990.0,11109.0,26.8234472,18.1236723
108,St. Lucia,LBY,Refugee population by country or territory of asylum,SM.POP.REFG,,,,1185.0,1999.0,3973.0,7747.0,8481.0,10558.0,10535.0,11543.0,11664.0,11666.0,11897.0,12166.0,12166.0,2760.0,4098.0,6713.0,9005.0,7923.0,10130.0,7065.0,25561.0,27964.0,9305.0,9310.0,9342.0,13.8250489,-60.975036
109,Least developed countries: UN classification,LCN,Refugee population by country or territory of asylum,SM.POP.REFG,1188273.0,890960.0,881523.0,125283.0,109046.0,93858.0,88421.0,83220.0,65566.0,61527.0,37851.0,37131.0,40878.0,38299.0,36190.0,37749.0,40577.0,530550.0,350274.0,367437.0,373867.0,377784.0,380738.0,382025.0,352668.0,337696.0,322402.0,251577.0,33.7680065,66.2385139
110,Low income,LDC,Refugee population by country or territory of asylum,SM.POP.REFG,5154454.0,4544317.0,4789360.0,5414332.0,5941773.0,5227254.0,3699472.0,2943632.0,2868489.0,3037679.0,3065660.0,2693154.0,2759372.0,2476180.0,2404576.0,2266833.0,2171614.0,2085767.0,1880805.0,1920287.0,1954960.0,2310969.0,2533521.0,2757733.0,3579434.0,4183517.0,4848700.0,6710238.0,39.730385,-105.014641705234
111,Liechtenstein,LIC,Refugee population by country or territory of asylum,SM.POP.REFG,4311639.0,3985478.0,4149968.0,4686670.0,5200033.0,4672161.0,3468325.0,2728149.0,2648004.0,2772969.0,2752932.0,2425370.0,2549236.0,2484093.0,2481828.0,2390564.0,2954649.0,3633519.0,3111041.0,2928093.0,2951440.0,3083332.0,2984115.0,2881456.0,3617663.0,4093081.0,4587158.0,5273866.0,47.1416307,9.5531527
112,Lower middle income,LKA,Refugee population by country or territory of asylum,SM.POP.REFG,,15.0,21.0,19.0,13.0,16.0,14.0,26.0,29.0,21.0,16.0,17.0,28.0,30.0,63.0,106.0,162.0,182.0,269.0,251.0,223.0,188.0,110.0,145.0,511.0,784.0,604.0,820.0,33.7680065,66.2385139
113,Low & middle income,LMC,Refugee population by country or territory of asylum,SM.POP.REFG,6418459.0,5970664.0,4972857.0,4883979.0,4417585.0,4323772.0,4032736.0,3932190.0,3893250.0,4107792.0,5053204.0,5253337.0,4240933.0,3992232.0,4105139.0,3887640.0,3861372.0,4958793.0,4746810.0,5073767.0,5419910.0,5238796.0,5219443.0,5326121.0,5555489.0,5751276.0,5676275.0,6920771.0,33.7680065,66.2385139
114,Lesotho,LMY,Refugee population by country or territory of asylum,SM.POP.REFG,17641843.0,17100428.0,16714081.0,15275929.0,14935116.0,14151745.0,12842339.0,12045380.0,11920415.0,12206997.0,12919120.0,12826630.0,11398301.0,10659682.0,10881440.0,10437483.0,11519807.0,13728812.0,12906517.0,13156402.0,13532627.0,13246897.0,13453726.0,15122836.0,17818888.0,19429494.0,20040331.0,22476564.0,-29.6039267,28.3350193
115,Late-demographic dividend,LSO,Refugee population by country or territory of asylum,SM.POP.REFG,214.0,220.0,117.0,60.0,58.0,,,,,1.0,,39.0,,,,,,,,,,34.0,34.0,30.0,44.0,31.0,45.0,50.0,33.7680065,66.2385139
116,Lithuania,LTE,Refugee population by country or territory of asylum,SM.POP.REFG,1010677.0,898662.0,1456425.0,1431710.0,1377382.0,1312768.0,1567856.0,1605038.0,1610360.0,1528599.0,1224861.0,1207671.0,1196982.0,1145633.0,1148038.0,1130281.0,1168840.0,1150485.0,1153656.0,1135094.0,1111412.0,1085995.0,1202754.0,1987259.0,2510235.0,2462424.0,2337895.0,2240049.0,55.3500003,23.7499997
117,Latvia,LUX,Refugee population by country or territory of asylum,SM.POP.REFG,687.0,692.0,2208.0,225.0,300.0,700.0,700.0,700.0,700.0,700.0,759.0,1201.0,1201.0,1201.0,1590.0,1822.0,2206.0,2737.0,3109.0,3230.0,3254.0,2855.0,2910.0,920.0,1108.0,1332.0,2046.0,1995.0,56.8406494,24.7537645
118,St. Martin (French part),MAC,Refugee population by country or territory of asylum,SM.POP.REFG,205.0,116.0,15.0,10.0,9.0,8.0,,,,,,,,,,,,,,6.0,,1.0,,,,,,,18.0814066,-63.0467131
119,Monaco,MAR,Refugee population by country or territory of asylum,SM.POP.REFG,311.0,322.0,319.0,336.0,336.0,55.0,51.0,57.0,901.0,901.0,2105.0,2091.0,2127.0,2121.0,2121.0,219.0,503.0,786.0,766.0,773.0,792.0,736.0,744.0,1470.0,1216.0,3908.0,4771.0,4678.0,43.7311424,7.4197576
120,Madagascar,MDA,Refugee population by country or territory of asylum,SM.POP.REFG,,,,,,,,,,8.0,68.0,159.0,173.0,102.0,57.0,84.0,161.0,151.0,148.0,141.0,148.0,146.0,185.0,250.0,335.0,446.0,432.0,371.0,-18.9249604,46.4416422
121,Maldives,MDG,Refugee population by country or territory of asylum,SM.POP.REFG,,,,,73.0,,,,,28.0,50.0,34.0,,,,,,,,,,9.0,9.0,12.0,11.0,10.0,28.0,34.0,4.7064352,73.3287853
122,Mexico,MEA,Refugee population by country or territory of asylum,SM.POP.REFG,6858896.0,7452190.0,7387352.0,5887941.0,5779933.0,5700322.0,5779902.0,5843512.0,5913189.0,5932384.0,6096361.0,6464801.0,6093053.0,5783912.0,5945544.0,5935398.0,7218709.0,8227068.0,7989433.0,7834349.0,7975540.0,7424262.0,7328907.0,8455220.0,9046707.0,8929086.0,8953332.0,9071128.0,19.4326009,-99.1333416
123,Marshall Islands,MEX,Refugee population by country or territory of asylum,SM.POP.REFG,356400.0,360170.0,360991.0,52477.0,47363.0,38717.0,34569.0,31908.0,28251.0,24511.0,18451.0,15455.0,12962.0,6075.0,4343.0,3229.0,3319.0,1616.0,1055.0,1235.0,1395.0,1677.0,1520.0,1831.0,1837.0,2923.0,6202.0,8963.0,6.9518742,170.9985095
124,Middle income,MHL,Refugee population by country or territory of asylum,SM.POP.REFG,,,,,,,,,,,,,,,,,,,,,,,,,,,,,39.3258793,-76.4437772545399
125,"Macedonia, FYR",MIC,Refugee population by country or territory of asylum,SM.POP.REFG,13330204.0,13114950.0,12564113.0,10589259.0,9735083.0,9479584.0,9374014.0,9317231.0,9272411.0,9434028.0,10166188.0,10401260.0,8849065.0,8175589.0,8399612.0,8046919.0,8565158.0,10095293.0,9795476.0,10228309.0,10581187.0,10163565.0,10469611.0,12241380.0,14201225.0,15336413.0,15453173.0,17202698.0,33.7680065,66.2385139
126,Mali,MKD,Refugee population by country or territory of asylum,SM.POP.REFG,,,32000.0,31452.0,14891.0,9048.0,5089.0,3500.0,1700.0,21200.0,9050.0,4363.0,2816.0,193.0,1004.0,1274.0,1240.0,1235.0,1672.0,1542.0,1398.0,1130.0,1077.0,982.0,883.0,701.0,637.0,409.0,16.3700359,-2.2900239
127,Malta,MLI,Refugee population by country or territory of asylum,SM.POP.REFG,13411.0,13120.0,13109.0,15224.0,15800.0,17916.0,18234.0,12552.0,13598.0,8302.0,8412.0,8439.0,9095.0,10009.0,11256.0,11233.0,10585.0,9203.0,9578.0,13538.0,13558.0,15624.0,13928.0,14316.0,15195.0,15917.0,17512.0,17036.0,35.8885993,14.4476911
128,Myanmar,MLT,Refugee population by country or territory of asylum,SM.POP.REFG,,,,505.0,429.0,416.0,367.0,343.0,296.0,271.0,190.0,176.0,307.0,895.0,1558.0,1939.0,2404.0,3000.0,4332.0,5955.0,6136.0,6952.0,8248.0,9906.0,6095.0,7075.0,7948.0,7949.0,17.1750495,95.9999652
129,Montenegro,MNA,Refugee population by country or territory of asylum,SM.POP.REFG,6857116.0,7373339.0,7313813.0,5832978.0,5731138.0,5683024.0,5765388.0,5833030.0,5902624.0,5921581.0,6083417.0,6213310.0,5841547.0,5536279.0,5701183.0,5690469.0,6974418.0,7943799.0,7696877.0,7809389.0,7942335.0,7374102.0,7269765.0,8394754.0,8998709.0,8886924.0,8909699.0,9035161.0,42.7728491,19.2408586
130,Mauritania,MOZ,Refugee population by country or territory of asylum,SM.POP.REFG,420.0,420.0,299.0,202.0,322.0,128.0,198.0,72.0,52.0,220.0,207.0,207.0,207.0,311.0,623.0,1954.0,2558.0,2767.0,3163.0,3547.0,4077.0,4079.0,4398.0,4445.0,4536.0,5622.0,4671.0,4866.0,14.4750607,-14.4529612
131,Mauritius,MRT,Refugee population by country or territory of asylum,SM.POP.REFG,60000.0,35200.0,37500.0,51548.0,82229.0,34394.0,15880.0,7511.0,26.0,223.0,350.0,365.0,405.0,475.0,473.0,632.0,770.0,30471.0,27041.0,26795.0,26717.0,26535.0,80496.0,92767.0,75635.0,77394.0,74148.0,77400.0,-20.2759451,57.5703566
132,Malawi,MUS,Refugee population by country or territory of asylum,SM.POP.REFG,,,,,,,,,,43.0,,14.0,,,,,,,,,,,,,,,,,-13.2687204,33.9301963
133,Malaysia,MWI,Refugee population by country or territory of asylum,SM.POP.REFG,926725.0,981812.0,1058498.0,713607.0,90242.0,1018.0,1268.0,280.0,1245.0,1700.0,3900.0,6200.0,2166.0,3202.0,3682.0,4240.0,3943.0,2929.0,4175.0,5443.0,5740.0,6308.0,6544.0,5796.0,5874.0,9019.0,9392.0,8977.0,2.3923759,112.8471939
134,North America,MYS,Refugee population by country or territory of asylum,SM.POP.REFG,14862.0,13947.0,11399.0,154.0,5308.0,5278.0,5309.0,5285.0,50614.0,50517.0,50487.0,50466.0,50612.0,7424.0,24905.0,33693.0,37170.0,32658.0,36671.0,66137.0,81516.0,86680.0,90185.0,97513.0,99381.0,94166.0,92263.0,103792.0,51.0000002,-109.0000002
135,Namibia,NAC,Refugee population by country or territory of asylum,SM.POP.REFG,619648.0,684798.0,763675.0,806310.0,817614.0,775419.0,745459.0,689021.0,653340.0,644459.0,635213.0,645077.0,615121.0,585642.0,562252.0,526511.0,995325.0,456960.0,453199.0,444895.0,430123.0,429646.0,425779.0,424011.0,416385.0,409090.0,370291.0,391813.0,-23.2335499,17.3231107
136,New Caledonia,NAM,Refugee population by country or territory of asylum,SM.POP.REFG,,136.0,171.0,585.0,1144.0,1682.0,2204.0,2511.0,3820.0,7612.0,27263.0,30885.0,21651.0,19800.0,14773.0,5307.0,5462.0,6525.0,6799.0,7163.0,7254.0,6049.0,1806.0,2332.0,1767.0,1737.0,1757.0,2177.0,-21.3019905,165.4880773
137,Nigeria,NER,Refugee population by country or territory of asylum,SM.POP.REFG,792.0,1385.0,3699.0,16692.0,15070.0,27622.0,25845.0,7376.0,3691.0,350.0,58.0,83.0,296.0,328.0,344.0,301.0,317.0,319.0,320.0,325.0,314.0,302.0,50510.0,57661.0,77830.0,124721.0,166093.0,165719.0,9.6000359,7.9999721
138,Nicaragua,NGA,Refugee population by country or territory of asylum,SM.POP.REFG,3571.0,3573.0,4782.0,4829.0,6026.0,8118.0,8486.0,9071.0,6780.0,6941.0,7270.0,7200.0,7355.0,9171.0,8395.0,9019.0,8768.0,8460.0,10124.0,9127.0,8747.0,8806.0,3154.0,1694.0,1239.0,1395.0,1367.0,1900.0,12.3724928,-84.8700308
139,Netherlands,NIC,Refugee population by country or territory of asylum,SM.POP.REFG,16000.0,14933.0,14450.0,5643.0,314.0,577.0,557.0,465.0,474.0,471.0,332.0,325.0,325.0,300.0,292.0,227.0,199.0,184.0,147.0,120.0,64.0,86.0,129.0,189.0,280.0,330.0,331.0,322.0,52.2379891,5.53460738161551
140,Norway,NLD,Refugee population by country or territory of asylum,SM.POP.REFG,17337.0,19020.0,29739.0,43538.0,62163.0,79960.0,102588.0,118071.0,131490.0,138646.0,146180.0,151928.0,148362.0,140886.0,126805.0,118189.0,100574.0,86587.0,77600.0,76008.0,74961.0,74598.0,71909.0,74707.0,82494.0,88536.0,101744.0,103818.0,64.5731537,11.5280364395482
141,Nepal,NOR,Refugee population by country or territory of asylum,SM.POP.REFG,19581.0,29054.0,29846.0,38375.0,44617.0,47607.0,48409.0,47381.0,45334.0,43440.0,47693.0,50128.0,50432.0,46109.0,44046.0,43034.0,43336.0,34522.0,36101.0,37826.0,40260.0,40691.0,42822.0,46106.0,47043.0,50389.0,59522.0,59160.0,28.1083929,84.0917139
142,Nauru,NPL,Refugee population by country or territory of asylum,SM.POP.REFG,17800.0,28319.0,95251.0,105342.0,123271.0,124754.0,126815.0,129157.0,126101.0,127940.0,129237.0,130945.0,132436.0,123667.0,124928.0,126436.0,128175.0,130681.0,124832.0,108461.0,89808.0,72654.0,56264.0,46305.0,38490.0,32667.0,25249.0,21467.0,-0.5252306,166.9324426
143,OECD members,NZL,Refugee population by country or territory of asylum,SM.POP.REFG,4666.0,16760.0,17310.0,3942.0,3668.0,3758.0,3788.0,3646.0,4097.0,4800.0,4923.0,5264.0,5757.0,5807.0,5350.0,5307.0,4906.0,2740.0,2716.0,3289.0,2307.0,1934.0,1517.0,1403.0,1349.0,1337.0,1421.0,1410.0,33.7680065,66.2385139
144,Oman,OED,Refugee population by country or territory of asylum,SM.POP.REFG,2524748.0,2608996.0,3206578.0,3162097.0,3215602.0,3088919.0,3109602.0,2831413.0,2618175.0,2640181.0,2517347.0,2560837.0,2621680.0,2532305.0,2401983.0,2176861.0,2558111.0,1927859.0,1960644.0,1986483.0,1962227.0,1937371.0,2196304.0,2179873.0,3269750.0,4454513.0,5322278.0,6361902.0,21.0000287,57.0036901
145,Pakistan,OSS,Refugee population by country or territory of asylum,SM.POP.REFG,126470.0,152419.0,100668.0,107785.0,63121.0,53378.0,51840.0,51743.0,48853.0,72906.0,92889.0,89995.0,80787.0,80923.0,67405.0,46113.0,59204.0,60847.0,82213.0,83033.0,77408.0,73311.0,67138.0,68187.0,65122.0,58067.0,58797.0,62329.0,30.3308401,71.247499
146,Panama,PAK,Refugee population by country or territory of asylum,SM.POP.REFG,3255975.0,3099891.0,1629218.0,1479266.0,1055435.0,1202493.0,1202703.0,1202734.0,1202462.0,1202015.0,2001466.0,2198797.0,1227433.0,1124298.0,1290984.0,1084694.0,1044462.0,2035023.0,1780935.0,1740711.0,1900621.0,1702700.0,1638456.0,1616507.0,1505525.0,1561162.0,1352560.0,1393132.0,8.3096067,-81.3066246
147,Peru,PAN,Refugee population by country or territory of asylum,SM.POP.REFG,1350.0,914.0,1007.0,964.0,972.0,867.0,867.0,622.0,1188.0,1321.0,1313.0,1470.0,1573.0,1445.0,1608.0,1730.0,1848.0,16890.0,16913.0,16923.0,17073.0,17262.0,17429.0,17665.0,17271.0,17322.0,17350.0,2372.0,-6.8699697,-75.0458515
148,Philippines,PER,Refugee population by country or territory of asylum,SM.POP.REFG,724.0,683.0,640.0,738.0,659.0,610.0,663.0,750.0,433.0,702.0,687.0,683.0,688.0,718.0,766.0,848.0,911.0,995.0,1075.0,1108.0,1146.0,1144.0,1122.0,1162.0,1303.0,1488.0,1649.0,1758.0,12.7503486,122.7312101
149,Palau,PHL,Refugee population by country or territory of asylum,SM.POP.REFG,19860.0,8972.0,6722.0,2477.0,669.0,783.0,691.0,311.0,307.0,170.0,176.0,136.0,114.0,108.0,107.0,96.0,100.0,106.0,104.0,95.0,243.0,125.0,141.0,182.0,222.0,269.0,408.0,482.0,6.097367,133.313631
150,Poland,PNG,Refugee population by country or territory of asylum,SM.POP.REFG,7099.0,6098.0,6686.0,7670.0,8461.0,9601.0,10176.0,8198.0,8198.0,6666.0,5863.0,4941.0,4941.0,7491.0,7627.0,9999.0,10183.0,10003.0,10006.0,9703.0,9698.0,9377.0,9383.0,9378.0,9510.0,9510.0,9536.0,10018.0,52.0977181,19.0258159
151,Pre-demographic dividend,POL,Refugee population by country or territory of asylum,SM.POP.REFG,,550.0,2719.0,810.0,393.0,600.0,600.0,835.0,898.0,942.0,1020.0,1311.0,1591.0,1836.0,2507.0,4604.0,6790.0,10053.0,12774.0,15320.0,15555.0,15847.0,15911.0,16438.0,15741.0,14065.0,11747.0,12190.0,33.7680065,66.2385139
152,Puerto Rico,PRE,Refugee population by country or territory of asylum,SM.POP.REFG,4602253.0,4276421.0,4645842.0,5196562.0,6064120.0,5289931.0,3785179.0,2991666.0,2914522.0,3098781.0,3233341.0,2921098.0,2923857.0,2596168.0,2501965.0,2350967.0,2209668.0,2104357.0,1940231.0,1863476.0,1930789.0,2305607.0,2423834.0,2663295.0,3441467.0,3974334.0,4449591.0,5506480.0,18.22141715,-66.4132818505648
153,Paraguay,PRT,Refugee population by country or territory of asylum,SM.POP.REFG,867.0,998.0,1778.0,600.0,248.0,248.0,308.0,319.0,339.0,379.0,433.0,449.0,462.0,418.0,377.0,363.0,333.0,353.0,403.0,389.0,384.0,408.0,483.0,598.0,699.0,853.0,1194.0,1569.0,-23.3165935,-58.1693445
154,West Bank and Gaza,PRY,Refugee population by country or territory of asylum,SM.POP.REFG,66.0,66.0,45.0,52.0,60.0,60.0,53.0,47.0,30.0,19.0,21.0,21.0,21.0,28.0,41.0,50.0,59.0,62.0,75.0,89.0,107.0,124.0,133.0,136.0,153.0,172.0,204.0,195.0,31.5077213,34.4607415
155,Pacific island small states,PSE,Refugee population by country or territory of asylum,SM.POP.REFG,910637.0,968704.0,1026771.0,1084838.0,1142905.0,1200972.0,1249368.0,1308438.0,1348288.0,1384655.0,1428891.0,1483394.0,1532589.0,1587920.0,1634952.0,1685851.0,1739266.0,1793901.0,1836123.0,1885188.0,2015855.0,1895043.0,1944544.0,1994493.0,2051098.0,2104001.0,2158274.0,2213963.0,33.7680065,66.2385139
156,Post-demographic dividend,PSS,Refugee population by country or territory of asylum,SM.POP.REFG,,,,,,2009.0,2009.0,800.0,210.0,,,,,,,,2.0,3.0,4.0,18.0,5.0,10.0,12.0,11.0,406.0,524.0,526.0,951.0,33.7680065,66.2385139
157,French Polynesia,PST,Refugee population by country or territory of asylum,SM.POP.REFG,2152345.0,2221997.0,3224640.0,3376934.0,3337810.0,3271536.0,3268626.0,2911236.0,2662696.0,2707660.0,2554678.0,2595535.0,2639652.0,2548727.0,2421713.0,2182983.0,2560182.0,1922487.0,1941575.0,1958387.0,1922196.0,1878184.0,1876410.0,1520633.0,1645640.0,1890363.0,2429373.0,2862932.0,-18.6243749,-144.6434898
158,Russian Federation,ROU,Refugee population by country or territory of asylum,SM.POP.REFG,,651.0,520.0,1170.0,1170.0,194.0,269.0,640.0,989.0,1242.0,1685.0,1805.0,1857.0,2011.0,1627.0,2056.0,1658.0,1757.0,1596.0,1069.0,1021.0,1005.0,1262.0,1770.0,2182.0,2598.0,2905.0,3876.0,64.6863136,97.7453061
159,Rwanda,RUS,Refugee population by country or territory of asylum,SM.POP.REFG,,,,,,,246691.0,237720.0,128574.0,80060.0,26265.0,17970.0,14969.0,9899.0,1852.0,1523.0,1425.0,1655.0,3479.0,4880.0,4922.0,3914.0,3178.0,3458.0,235750.0,314507.0,228990.0,125986.0,-1.9646631,30.0644358
160,South Asia,RWA,Refugee population by country or territory of asylum,SM.POP.REFG,23601.0,34004.0,25162.0,277000.0,6000.0,7792.0,25257.0,34227.0,33403.0,34365.0,28398.0,34786.0,30863.0,36608.0,50221.0,45206.0,49192.0,53577.0,55062.0,54016.0,55398.0,55325.0,58212.0,73349.0,73820.0,144737.0,156065.0,170976.0,-32.173511,-61.7130193
161,Saudi Arabia,SAS,Refugee population by country or territory of asylum,SM.POP.REFG,3486713.0,3379092.0,2288041.0,2078511.0,1572419.0,1625466.0,1612369.0,1576598.0,1536385.0,1532217.0,2323287.0,2521487.0,1550780.0,1432566.0,1599141.0,1371649.0,1357511.0,2355038.0,2119005.0,2263369.0,2411160.0,2193338.0,2127370.0,2099360.0,2277358.0,2285506.0,1912242.0,2620677.0,25.6242618,42.3528328
162,Sudan,SAU,Refugee population by country or territory of asylum,SM.POP.REFG,,33261.0,28660.0,24025.0,17965.0,13169.0,9852.0,5833.0,5531.0,5562.0,5309.0,245268.0,245290.0,240835.0,240552.0,240701.0,240772.0,240742.0,240572.0,575.0,582.0,599.0,577.0,559.0,561.0,125.0,140.0,148.0,14.5844444,29.4917691
163,Senegal,SDN,Refugee population by country or territory of asylum,SM.POP.REFG,1031050.0,729200.0,725900.0,745200.0,727174.0,674071.0,393874.0,374415.0,391496.0,390995.0,414928.0,349209.0,328176.0,138163.0,141588.0,147256.0,196200.0,222722.0,181605.0,186292.0,178308.0,139415.0,152194.0,159857.0,277833.0,309639.0,421466.0,906585.0,14.4750607,-14.4529612
164,Singapore,SEN,Refugee population by country or territory of asylum,SM.POP.REFG,58113.0,71908.0,71620.0,73002.0,72994.0,66769.0,65044.0,57229.0,60823.0,21539.0,20766.0,20707.0,20711.0,20726.0,20804.0,20712.0,20591.0,20421.0,33193.0,22151.0,20672.0,20644.0,14237.0,14247.0,14274.0,14392.0,14584.0,14646.0,1.2904753,103.8520359
165,Solomon Islands,SGP,Refugee population by country or territory of asylum,SM.POP.REFG,146.0,166.0,115.0,11.0,12.0,112.0,10.0,5.0,5.0,1.0,,2.0,2.0,1.0,1.0,3.0,1.0,10.0,10.0,7.0,7.0,3.0,3.0,3.0,3.0,,,,-9.7354344,162.8288542
166,Sierra Leone,SLB,Refugee population by country or territory of asylum,SM.POP.REFG,,,,,,2000.0,2000.0,800.0,210.0,,,,,,,,,,,,,,,,3.0,3.0,,,8.6400349,-11.8400269
167,El Salvador,SLE,Refugee population by country or territory of asylum,SM.POP.REFG,125830.0,28036.0,5866.0,16279.0,15874.0,4675.0,13532.0,13011.0,9866.0,6570.0,6546.0,10501.0,63494.0,61194.0,65437.0,59965.0,27365.0,8795.0,7826.0,9051.0,8363.0,8092.0,4204.0,2817.0,1372.0,760.0,683.0,678.0,13.8000382,-88.9140683
168,San Marino,SLV,Refugee population by country or territory of asylum,SM.POP.REFG,20300.0,20099.0,19903.0,163.0,156.0,154.0,150.0,109.0,33.0,24.0,59.0,69.0,74.0,246.0,235.0,49.0,39.0,39.0,32.0,30.0,38.0,38.0,45.0,44.0,35.0,48.0,45.0,30.0,43.9458623,12.458306
169,Serbia,SOM,Refugee population by country or territory of asylum,SM.POP.REFG,460000.0,,480.0,399.0,388.0,626.0,700.0,622.0,337.0,130.0,558.0,589.0,199.0,368.0,357.0,493.0,669.0,901.0,1842.0,1815.0,1937.0,2099.0,2309.0,2425.0,2729.0,8081.0,11574.0,14555.0,44.1534121,20.55144
170,South Sudan,SSA,Refugee population by country or territory of asylum,SM.POP.REFG,5641625.0,5008974.0,5234269.0,6155625.0,6490186.0,5743448.0,4131880.0,3279652.0,3138336.0,3316430.0,3413307.0,3070183.0,3058339.0,2836859.0,2730803.0,2561600.0,2412742.0,2295000.0,2124149.0,2089538.0,2195568.0,2699553.0,2835828.0,3005712.0,3745950.0,4471440.0,5191516.0,6327594.0,7.8699431,29.6667897
171,Sub-Saharan Africa,SSD,Refugee population by country or territory of asylum,SM.POP.REFG,,,,,,,,,,,,,,,,,,,,,,105023.0,202581.0,229587.0,248152.0,263016.0,262560.0,283400.0,33.7680065,66.2385139
172,Small states,SSF,Refugee population by country or territory of asylum,SM.POP.REFG,5641625.0,5008974.0,5234269.0,6155625.0,6490186.0,5743448.0,4131880.0,3279652.0,3138336.0,3316430.0,3413307.0,3070183.0,3058339.0,2836859.0,2730803.0,2561600.0,2412742.0,2295000.0,2124149.0,2089538.0,2195568.0,2699553.0,2835828.0,3005712.0,3745950.0,4471440.0,5191518.0,6327594.0,32.7451268,-95.8519096
173,Sao Tome and Principe,SST,Refugee population by country or territory of asylum,SM.POP.REFG,157127.0,182392.0,121535.0,116869.0,72058.0,64168.0,62456.0,61038.0,52663.0,75934.0,94277.0,91124.0,81836.0,81784.0,68137.0,46737.0,59694.0,61231.0,82528.0,83345.0,77633.0,73481.0,67262.0,68292.0,65672.0,58788.0,59479.0,63599.0,0.8875498,6.9648718
174,Slovak Republic,SUR,Refugee population by country or territory of asylum,SM.POP.REFG,,,52.0,50.0,39.0,,,11.0,,,,,,,,,,1.0,1.0,1.0,1.0,,,,,1.0,1.0,29.0,48.7411522,19.4528646
175,Slovenia,SVK,Refugee population by country or territory of asylum,SM.POP.REFG,,,,1521.0,159.0,2339.0,1387.0,746.0,424.0,443.0,457.0,472.0,444.0,414.0,409.0,368.0,248.0,279.0,317.0,401.0,461.0,546.0,662.0,701.0,799.0,820.0,990.0,887.0,45.8133113,14.4808369
176,Sweden,SVN,Refugee population by country or territory of asylum,SM.POP.REFG,,,74100.0,45000.0,29156.0,22314.0,10014.0,5135.0,3465.0,4382.0,2816.0,2411.0,390.0,2069.0,304.0,251.0,254.0,263.0,268.0,289.0,314.0,142.0,176.0,213.0,257.0,292.0,462.0,591.0,59.6749712,14.5208584
177,Eswatini,SWE,Refugee population by country or territory of asylum,SM.POP.REFG,109663.0,124470.0,131073.0,162402.0,200791.0,199212.0,191171.0,186725.0,178795.0,159513.0,157220.0,146491.0,142193.0,112167.0,73408.0,74915.0,79913.0,75078.0,77038.0,81356.0,82629.0,86615.0,92872.0,114175.0,142207.0,169520.0,230164.0,240899.0,-26.5624806,31.3991317
178,Sint Maarten (Dutch part),SWZ,Refugee population by country or territory of asylum,SM.POP.REFG,42074.0,49569.0,55580.0,48889.0,643.0,712.0,575.0,592.0,592.0,616.0,690.0,690.0,653.0,686.0,704.0,760.0,752.0,789.0,775.0,759.0,759.0,759.0,505.0,507.0,515.0,696.0,728.0,765.0,18.0423736,-63.0549948
179,Turks and Caicos Islands,SYR,Refugee population by country or territory of asylum,SM.POP.REFG,284856.0,296256.0,309672.0,353392.0,366283.0,373530.0,375150.0,383906.0,391009.0,384856.0,390989.0,399599.0,408519.0,417508.0,437341.0,458137.0,1144572.0,1955236.0,1567595.0,1526575.0,1501442.0,1242391.0,975695.0,666547.0,677756.0,581113.0,562823.0,569774.0,21.7214683,-71.6201783
180,East Asia & Pacific (IDA & IBRD countries),TCD,Refugee population by country or territory of asylum,SM.POP.REFG,,,70.0,70.0,109.0,100.0,100.0,302.0,8810.0,23478.0,17692.0,12950.0,33455.0,146400.0,259880.0,275412.0,286743.0,294017.0,330510.0,338495.0,347939.0,366494.0,373695.0,434479.0,452897.0,369540.0,391251.0,411460.0,33.7680065,66.2385139
181,Europe & Central Asia (IDA & IBRD countries),TEA,Refugee population by country or territory of asylum,SM.POP.REFG,453346.0,429546.0,396348.0,424447.0,407428.0,446979.0,450724.0,490303.0,505076.0,628312.0,594198.0,551125.0,510300.0,449102.0,456067.0,464458.0,484364.0,472348.0,463586.0,485541.0,492004.0,488524.0,487137.0,547913.0,545148.0,519824.0,534336.0,551365.0,33.7680065,66.2385139
182,Togo,TEC,Refugee population by country or territory of asylum,SM.POP.REFG,28000.0,31663.0,1018934.0,959931.0,822095.0,769821.0,971348.0,863888.0,806359.0,780422.0,494769.0,460925.0,410964.0,377444.0,369416.0,324820.0,265693.0,165463.0,188546.0,179595.0,156411.0,152803.0,392394.0,733233.0,1938485.0,2965575.0,3205086.0,3711010.0,8.7800265,1.0199765
183,Thailand,TGO,Refugee population by country or territory of asylum,SM.POP.REFG,3477.0,3406.0,3353.0,3280.0,12370.0,10876.0,12589.0,12682.0,11816.0,12113.0,12223.0,12257.0,12294.0,12395.0,11285.0,9287.0,6328.0,1328.0,9377.0,8531.0,14051.0,19270.0,23540.0,20613.0,21778.0,21953.0,12491.0,12420.0,14.8971921,100.83273
184,Tajikistan,THA,Refugee population by country or territory of asylum,SM.POP.REFG,99821.0,88164.0,63625.0,119232.0,100817.0,106565.0,107962.0,169154.0,138332.0,100133.0,104965.0,110711.0,112614.0,119053.0,121139.0,117053.0,133117.0,125643.0,112932.0,105297.0,96675.0,89253.0,84479.0,136499.0,130238.0,108261.0,106447.0,104585.0,38.6281733,70.8156541
185,Turkmenistan,TJK,Refugee population by country or territory of asylum,SM.POP.REFG,,,3000.0,300.0,695.0,620.0,1166.0,2174.0,3634.0,4541.0,15364.0,15346.0,3437.0,3306.0,1834.0,1018.0,929.0,1133.0,1799.0,2679.0,3131.0,3323.0,2248.0,2048.0,2026.0,1969.0,2729.0,2516.0,39.3763807,59.3924609
186,Latin America & the Caribbean (IDA & IBRD countries),TKM,Refugee population by country or territory of asylum,SM.POP.REFG,,,,15400.0,15400.0,23323.0,15580.0,15787.0,14625.0,18464.0,14188.0,14005.0,13693.0,13511.0,13253.0,11963.0,750.0,125.0,79.0,60.0,62.0,59.0,46.0,45.0,35.0,26.0,27.0,22.0,33.7680065,66.2385139
187,Timor-Leste,TLA,Refugee population by country or territory of asylum,SM.POP.REFG,1184285.0,890960.0,876057.0,121618.0,107044.0,92021.0,86679.0,81880.0,64419.0,60460.0,36797.0,36095.0,39873.0,37463.0,35395.0,37043.0,39910.0,529935.0,349749.0,366982.0,373417.0,377358.0,380308.0,381596.0,352324.0,337316.0,321993.0,251128.0,-8.5151979,125.8375756
188,Tonga,TMN,Refugee population by country or territory of asylum,SM.POP.REFG,5946479.0,6404635.0,6287042.0,4748140.0,4588233.0,4482052.0,4516020.0,4524592.0,4554336.0,4536926.0,4654526.0,4729916.0,4308958.0,3948359.0,4066231.0,4004618.0,5235152.0,6149898.0,5860754.0,5924201.0,5926480.0,5479059.0,5325221.0,6400261.0,6947611.0,6782923.0,6751425.0,6821198.0,-19.9160819,-175.2026424
189,Sub-Saharan Africa (IDA & IBRD countries),TSA,Refugee population by country or territory of asylum,SM.POP.REFG,3486713.0,3379092.0,2288041.0,2078511.0,1572419.0,1625466.0,1612369.0,1576598.0,1536385.0,1532217.0,2323287.0,2521487.0,1550780.0,1432566.0,1599141.0,1371649.0,1357511.0,2355038.0,2119005.0,2263369.0,2411160.0,2193338.0,2127370.0,2099360.0,2277358.0,2285506.0,1912242.0,2620677.0,33.7680065,66.2385139
190,Trinidad and Tobago,TSS,Refugee population by country or territory of asylum,SM.POP.REFG,5641625.0,5008974.0,5234269.0,6155625.0,6490186.0,5743448.0,4131880.0,3279652.0,3138336.0,3316430.0,3413307.0,3070183.0,3058339.0,2836859.0,2730803.0,2561600.0,2412742.0,2295000.0,2124149.0,2089538.0,2195568.0,2699553.0,2835828.0,3005712.0,3745950.0,4471440.0,5191518.0,6327594.0,10.8677845,-60.9821067
191,Turkey,TUN,Refugee population by country or territory of asylum,SM.POP.REFG,30.0,130.0,111.0,99.0,19.0,199.0,176.0,506.0,528.0,454.0,436.0,97.0,102.0,99.0,90.0,87.0,93.0,101.0,94.0,92.0,89.0,4097.0,1435.0,730.0,901.0,665.0,649.0,701.0,38.9597594,34.9249653
192,Tuvalu,TUR,Refugee population by country or territory of asylum,SM.POP.REFG,28000.0,30462.0,28477.0,23267.0,24927.0,12841.0,8166.0,2446.0,2528.0,2815.0,3103.0,3472.0,3301.0,2490.0,3033.0,2399.0,2633.0,6956.0,11103.0,10350.0,10032.0,14465.0,267063.0,609938.0,1587374.0,2541352.0,2869421.0,3480310.0,-7.768959,178.1167698
193,Uganda,TZA,Refugee population by country or territory of asylum,SM.POP.REFG,265184.0,288103.0,292148.0,564520.0,883250.0,829671.0,498732.0,570367.0,543881.0,622203.0,680862.0,646900.0,689373.0,649770.0,602088.0,548824.0,485295.0,435630.0,321909.0,118731.0,109286.0,131243.0,101021.0,102099.0,88492.0,211845.0,281498.0,308528.0,1.5333554,32.2166578
194,Ukraine,UGA,Refugee population by country or territory of asylum,SM.POP.REFG,145718.0,162521.0,196290.0,286500.0,286500.0,229350.0,264294.0,188513.0,204545.0,218191.0,236622.0,199736.0,217302.0,230903.0,250482.0,257256.0,272007.0,228959.0,162132.0,127345.0,135801.0,139448.0,197877.0,220555.0,385513.0,477187.0,940835.0,1350495.0,49.4871968,31.2718321
195,Upper middle income,UKR,Refugee population by country or territory of asylum,SM.POP.REFG,,,,,5193.0,5193.0,3591.0,4564.0,6101.0,2697.0,2951.0,2983.0,2966.0,2877.0,2459.0,2346.0,2275.0,7277.0,7201.0,7334.0,3022.0,3176.0,2807.0,2968.0,3219.0,3273.0,3302.0,3211.0,33.7680065,66.2385139
196,Uruguay,UMC,Refugee population by country or territory of asylum,SM.POP.REFG,6911745.0,7144286.0,7591256.0,5705280.0,5317498.0,5155812.0,5341278.0,5385041.0,5379161.0,5326236.0,5112984.0,5147923.0,4608132.0,4183357.0,4294473.0,4159279.0,4703786.0,5136500.0,5048666.0,5154542.0,5161277.0,4924769.0,5250168.0,6915259.0,8645736.0,9585137.0,9776898.0,10281927.0,-32.8755548,-56.0201525
197,United States,URY,Refugee population by country or territory of asylum,SM.POP.REFG,87.0,81.0,90.0,138.0,113.0,132.0,138.0,133.0,163.0,87.0,79.0,90.0,99.0,91.0,97.0,121.0,125.0,140.0,145.0,168.0,189.0,174.0,181.0,203.0,272.0,301.0,312.0,304.0,39.7837304,-100.4458825
198,Uzbekistan,USA,Refugee population by country or territory of asylum,SM.POP.REFG,464887.0,513882.0,579952.0,623069.0,631051.0,623294.0,607024.0,563837.0,533969.0,521143.0,508222.0,515853.0,485171.0,452548.0,420854.0,379340.0,843498.0,281219.0,279548.0,275461.0,264574.0,264763.0,262023.0,263662.0,267222.0,273202.0,272959.0,287065.0,41.32373,63.9528098
199,St. Vincent and the Grenadines,UZB,Refugee population by country or territory of asylum,SM.POP.REFG,,,,8000.0,8001.0,2627.0,2900.0,3159.0,1071.0,1014.0,38350.0,39579.0,44936.0,44682.0,44455.0,43950.0,1415.0,1054.0,821.0,555.0,311.0,214.0,176.0,141.0,125.0,107.0,27.0,20.0,12.90447,-61.2765569
200,British Virgin Islands,VEN,Refugee population by country or territory of asylum,SM.POP.REFG,1750.0,1720.0,1990.0,2221.0,2177.0,1613.0,1596.0,301.0,158.0,188.0,132.0,59.0,58.0,58.0,244.0,408.0,720.0,200907.0,201161.0,201313.0,201547.0,202022.0,203644.0,204340.0,173600.0,173754.0,172053.0,122774.0,18.4024395,-64.5661642
201,Vanuatu,VNM,Refugee population by country or territory of asylum,SM.POP.REFG,21150.0,20148.0,16263.0,5084.0,5000.0,34400.0,34400.0,15000.0,15000.0,15000.0,15945.0,15945.0,15945.0,15360.0,2360.0,2357.0,2357.0,2357.0,2357.0,2357.0,1928.0,990.0,,,,,,,-16.5255069,168.1069154
202,World,VUT,Refugee population by country or territory of asylum,SM.POP.REFG,,,,,,,,,,,,,,,,,,1.0,3.0,4.0,4.0,,2.0,2.0,,,,,25.2529955,55.1771471150149
203,Samoa,WLD,Refugee population by country or territory of asylum,SM.POP.REFG,19805688.0,19414923.0,20023531.0,18718993.0,18325596.0,17418028.0,16102005.0,14934398.0,14552205.0,14863846.0,15451236.0,15643310.0,14265347.0,13437842.0,13530667.0,12863676.0,14326136.0,15953753.0,15161622.0,15163210.0,15516350.0,15202527.0,15417874.0,16729328.0,19535060.0,21377887.0,22527930.0,25376316.0,-13.7693895,-172.1200508
204,South Africa,YEM,Refugee population by country or territory of asylum,SM.POP.REFG,2938.0,29977.0,59680.0,54450.0,48306.0,53453.0,53546.0,40964.0,61382.0,60477.0,60545.0,69468.0,82803.0,61881.0,66384.0,81937.0,95794.0,117363.0,140169.0,170854.0,190092.0,214740.0,237182.0,241288.0,257645.0,267173.0,269783.0,270898.0,-28.8166236,24.991639
205,Zambia,ZAF,Refugee population by country or territory of asylum,SM.POP.REFG,,,,250000.0,91894.0,101408.0,22645.0,6819.0,8388.0,14538.0,15063.0,18605.0,23344.0,26558.0,27683.0,29714.0,35086.0,36736.0,43546.0,47974.0,57899.0,57899.0,65233.0,65987.0,112192.0,121645.0,91043.0,88694.0,-14.5186239,27.5599164
206,Zimbabwe,ZMB,Refugee population by country or territory of asylum,SM.POP.REFG,138049.0,140676.0,142104.0,141126.0,141126.0,129965.0,131139.0,165072.0,168564.0,206386.0,250940.0,284173.0,246765.0,226697.0,173907.0,155718.0,120253.0,112931.0,83485.0,56785.0,47857.0,45632.0,25653.0,23594.0,25578.0,26447.0,29350.0,41266.0,-18.4554963,29.7468414
